City_ID,City,Country,Max Temp,Current Description,Lat,Lng,Hotel Name
0,Vaini,TO,80.76,scattered clouds,-21.2,-175.2,Keleti Beach Resort
1,Karratha,AU,84.0,clear sky,-20.7377,116.8463,ibis Styles Karratha
2,Naze,JP,79.72,overcast clouds,28.3667,129.4833,オーベルジュ・アガルイ
3,Castro,BR,64.06,overcast clouds,-24.7911,-50.0119,CHACARA BAILLY
4,Hualmay,PE,63.07,scattered clouds,-11.0964,-77.6139,Hotel Villa Kitzia Huacho
5,Saint George,US,79.63,clear sky,37.1041,-113.5841,Best Western Plus Abbey Inn
6,Butaritari,KI,81.63,clear sky,3.0707,172.7902,Isles Sunset Lodge
7,Pisco,PE,62.65,clear sky,-13.7,-76.2167,Hotel San Isidro Oficial
8,Kutum,SD,73.36,overcast clouds,14.2,24.6667,Dibbo areaمنطقة دبو
9,Mahebourg,MU,70.25,scattered clouds,-20.4081,57.7,Shandrani Beachcomber Resort & Spa
10,Hermanus,ZA,60.8,clear sky,-34.4187,19.2345,Misty Waves Boutique Hotel
11,Puerto Ayora,EC,68.56,overcast clouds,-0.7393,-90.3518,Finch Bay Galapagos Hotel
14,Arraial Do Cabo,BR,70.61,overcast clouds,-22.9661,-42.0278,Pousada Porto Praia
15,Atuona,PF,78.51,clear sky,-9.8,-139.0333,Villa Enata
17,Souillac,MU,70.36,light rain,-20.5167,57.5167,Shanti Maurice Resort & Spa
18,Mataura,NZ,67.48,overcast clouds,-46.1927,168.8643,Ellie's Villa
19,East London,ZA,63.05,few clouds,-33.0153,27.9116,Tu Casa
20,Flin Flon,CA,58.37,overcast clouds,54.7682,-101.865,Victoria Inn Flin Flon
21,Busselton,AU,58.05,overcast clouds,-33.65,115.3333,Observatory Guest House
22,Port Alfred,ZA,63.99,clear sky,-33.5906,26.891,The Halyards Hotel
23,Port Lincoln,AU,58.95,few clouds,-34.7333,135.8667,Port Lincoln Hotel
26,Geraldton,AU,55.81,clear sky,-28.7667,114.6,Broadwater Mariner Resort
27,Show Low,US,69.51,clear sky,34.2542,-110.0298,Hampton Inn & Suites Show Low-Pinetop
28,Bluff,NZ,67.8,overcast clouds,-46.6,168.3333,Bluff Homestead - Guesthouse & Campervan Park
30,New Bern,US,75.45,clear sky,35.1085,-77.0441,Hampton Inn New Bern
31,Sinnamary,GF,80.46,overcast clouds,5.3833,-52.95,ALETHEIA Appartement Sinnamary
32,Pitimbu,BR,77.59,few clouds,-7.4706,-34.8086,Reserva do Abiaí
33,Saint-Pierre,RE,69.48,clear sky,-21.3393,55.4781,Lindsey Hôtel
35,Tsiroanomandidy,MG,64.08,clear sky,-18.7667,46.0333,Hotel du Bongolave
36,Saldanha,ZA,57.25,clear sky,-33.0117,17.9442,Blue Bay Lodge
40,Hithadhoo,MV,83.41,broken clouds,-0.6,73.0833,Scoop Guest House
41,Auray,FR,60.75,overcast clouds,47.6703,-2.9918,Best Western Auray hotel du Loch
42,Maputo,MZ,70.23,overcast clouds,-25.9653,32.5892,Pestana Rovuma
45,Cape Town,ZA,63.27,clear sky,-33.9258,18.4232,Southern Sun Waterfront Cape Town
47,Ntoum,GA,76.77,heavy intensity rain,0.3833,9.7833,Hôtel Santa Barbara
51,Pak Thong Chai,TH,77.25,overcast clouds,14.7226,102.0251,Mulberry House Korat
52,Ranong,TH,75.13,light rain,9.9658,98.6348,Tinidee Hotel@Ranong
53,Portland,US,60.28,broken clouds,45.5234,-122.6762,Embassy Suites by Hilton Portland Downtown
55,Roald,NO,52.9,overcast clouds,62.5833,6.1333,Flem Cabins
56,Ambilobe,MG,68.16,broken clouds,-13.2,49.05,Hôtel & Restaurant DIANA Ambilobe
58,Guerrero Negro,MX,71.82,scattered clouds,27.9769,-114.0611,"Casa Laguna, Bed & Breakfast"
61,Hobart,AU,56.05,scattered clouds,-42.8794,147.3294,Mantra on Collins Hobart
62,Lethem,GY,80.31,overcast clouds,3.3803,-59.7968,Savannah Inn
63,Loiza,PR,84.18,scattered clouds,18.4313,-65.8802,Malibu Beachfront
64,Kodiak,US,51.31,overcast clouds,57.79,-152.4072,Best Western Kodiak Inn And Convention Center
65,Creel,MX,59.99,scattered clouds,27.75,-107.6333,The Lodge at Creel Hotel & SPA
66,Isangel,VU,82.51,broken clouds,-19.55,169.2667,Tanna Lodge
67,Taltal,CL,60.84,broken clouds,-25.4,-70.4833,Residencial Karime
68,Arlit,NE,81.57,clear sky,18.7369,7.3853,Case de Passage De la Prefecture
69,Fortuna,US,64.18,few clouds,40.5982,-124.1573,Super 8 by Wyndham Fortuna
70,Ribeira Grande,PT,71.85,overcast clouds,38.5167,-28.7,Quinta da Meia Eira
71,Kapaa,US,84.18,few clouds,22.0752,-159.319,Sheraton Kauai Coconut Beach Resort
75,Lagoa,PT,70.72,overcast clouds,39.05,-27.9833,Casa Das Faias
77,Port Elizabeth,ZA,61.09,clear sky,-33.918,25.5701,39 On Nile Guest House
79,Mayo,US,71.56,overcast clouds,38.8876,-76.5119,Resorts Resource Group International
84,Cortez,US,64.51,clear sky,37.3489,-108.5859,Sand Canyon National 9 Inn
86,Pochutla,MX,84.02,broken clouds,15.7432,-96.4661,Hotel Posada San Jose
87,Mitsamiouli,KM,74.97,overcast clouds,-11.3847,43.2844,Foyer ADM
88,Antsohihy,MG,71.24,scattered clouds,-14.8796,47.9875,Hotel de Ville
92,Taos,US,64.8,broken clouds,36.4072,-105.5731,El Monte Sagrado
96,Mar Del Plata,AR,50.0,scattered clouds,-38.0023,-57.5575,Gran Hotel Mar del Plata
97,Rikitea,PF,74.19,overcast clouds,-23.1203,-134.9692,People ThankYou
98,Nanyamba,TZ,66.83,broken clouds,-10.6833,39.8333,Busati Lodge Nanyamba
100,Vila Franca Do Campo,PT,75.2,overcast clouds,37.7167,-25.4333,Pestana Bahia Praia
101,Bredasdorp,ZA,60.28,broken clouds,-34.5322,20.0403,Bredasdorp Country Manor
104,Luanda,AO,73.4,broken clouds,-8.8368,13.2343,Hotel Fórum
109,Hilo,US,84.27,light rain,19.7297,-155.09,Hilo Hawaiian Hotel
110,Valparaiso,CL,56.84,clear sky,-33.0393,-71.6273,Hotel Ultramar
113,New Norfolk,AU,56.71,clear sky,-42.7826,147.0587,The Shingles Riverside Cottages
114,Teluk Nibung,ID,78.58,overcast clouds,3.001,99.8164,Hotel Assyifa
117,Cap Malheureux,MU,70.47,light rain,-19.9842,57.6142,Pereybere Hotel & Spa
118,Richards Bay,ZA,65.52,light rain,-28.783,32.0377,BON Hotel Waterfront Richards Bay
121,Biltine,TD,79.38,broken clouds,14.5333,20.9167,Hôtel Trois Étoiles de Biltine
124,Namibe,AO,60.94,clear sky,-15.1961,12.1522,Hotel Chik Chik Namibe
125,Catamarca,AR,65.59,overcast clouds,-28.4696,-65.7852,Amerian Catamarca Park Hotel
126,Praia Da Vitoria,PT,73.65,scattered clouds,38.7333,-27.0667,Hotel Branco I
127,Jalu,LY,66.92,clear sky,29.0331,21.5482,صاحبة الفخامة
129,Lebu,CL,50.92,clear sky,-37.6167,-73.65,Hostal Las Lilas
131,Piet Retief,ZA,56.89,light rain,-27.0071,30.8132,Arabian Nite Guest House
132,Poum,NC,74.3,clear sky,-20.2333,164.0167,Gîte kajeon
133,Port Hardy,CA,51.8,light intensity shower rain,50.6996,-127.4199,Airport Inn
134,Labuhan,ID,82.27,few clouds,-6.8844,112.2051,PT PPI Lamongan Tambak C
135,Umm Lajj,SA,80.15,clear sky,25.0213,37.2685,Moon light Furnished Units
136,Sao Felix Do Xingu,BR,74.93,few clouds,-6.6447,-51.995,Rio Xingu Camping
139,Namatanai,PG,84.99,broken clouds,-3.6667,152.4333,Seagulls Inn Namatani
140,Esmeraldas,BR,76.24,overcast clouds,-19.7625,-44.3139,Bom Será - Marcinho e Fernanda
141,Saint-Philippe,RE,69.39,few clouds,-21.3585,55.7679,"Chambres d'hôte ""La Trinité"""
142,Bandarbeyla,SO,78.75,few clouds,9.4942,50.8122,JABIR HOTEL
143,Fairlie,GB,59.4,overcast clouds,55.756,-4.8556,Brisbane House Hotel
144,Shushtar,IR,84.74,few clouds,32.0455,48.8567,چاپ یاس کبود
145,Caravelas,BR,73.45,clear sky,-17.7125,-39.2481,Pousada dos Navegantes
146,Yarmouth,US,61.09,clear sky,41.7057,-70.2286,Blue Rock Resort
147,Half Moon Bay,US,68.92,clear sky,37.4636,-122.4286,"The Ritz-Carlton, Half Moon Bay"
148,Aswan,EG,74.5,clear sky,24.0934,32.907,Nuba Nile
150,Bulach,CH,50.11,light intensity drizzle,47.522,8.5405,Hotel Hori Inn
151,Huarmey,PE,64.11,broken clouds,-10.0681,-78.1522,Hotel Miramar
154,Carndonagh,IE,61.07,overcast clouds,55.25,-7.2667,Riversdale Country House
156,Bela,IN,80.51,scattered clouds,25.9333,81.9833,Raj Bhawan
158,Ngunguru,NZ,61.16,overcast clouds,-35.6167,174.5,Pacific Rendezvous Motel Resort
163,Luganville,VU,83.86,broken clouds,-15.5333,167.1667,The Espiritu Hotel
165,Assiniboia,CA,73.31,overcast clouds,49.6334,-105.9845,Canalta Hotel Assiniboia
166,Imbituba,BR,67.82,moderate rain,-28.24,-48.6703,Praia Hotel Imbituba
167,Macklin,CA,55.74,overcast clouds,52.3334,-109.9348,Macklin Motor Inn
170,Jamestown,US,68.85,clear sky,42.097,-79.2353,Hampton Inn & Suites Jamestown
172,Port Hawkesbury,CA,59.59,clear sky,45.6169,-61.3485,MacKenzie House Tourist Home B&B
173,Tautira,PF,84.22,light rain,-17.7333,-149.15,Pension Oaoa
174,Alofi,NU,80.49,light intensity drizzle,-19.0595,-169.9187,Taloa Heights
175,Margate,GB,53.96,broken clouds,51.3813,1.3862,Premier Inn Margate hotel
177,Alice Springs,AU,69.35,clear sky,-23.7,133.8833,Desert Palms Alice Springs
179,Hamilton,US,73.38,few clouds,39.1834,-84.5333,Six Acres Bed & Breakfast
180,Mount Gambier,AU,51.71,scattered clouds,-37.8333,140.7667,The Commodore
181,Kawalu,ID,73.98,overcast clouds,-7.3817,108.2082,KOSAN UNGU UNSIK
182,Carnarvon,AU,66.27,clear sky,-24.8667,113.6333,Hospitality Carnarvon
183,Esperance,AU,57.04,overcast clouds,-33.8667,121.9,Hospitality Esperance
185,Stryn,NO,52.88,overcast clouds,61.9045,6.7226,Visnes Hotel Stryn
186,Teguise,ES,66.42,few clouds,29.0605,-13.564,B&B La Casona de Nazaret
187,Catio,GW,78.84,scattered clouds,11.2833,-15.25,Pausada Morabedja
189,Marawi,PH,71.65,overcast clouds,7.9986,124.2928,Derogongan Residence
192,Khash,IR,64.38,clear sky,28.2211,61.2158,دفتر پیشخوان دولت جمال زهی (خالد)
193,Touros,BR,79.7,few clouds,-5.1989,-35.4608,INN NEW HORIZON
196,Hobyo,SO,78.04,scattered clouds,5.3505,48.5268,Halane Hotel and Restaurent
197,Tezpur,IN,75.4,scattered clouds,26.6333,92.8,Hotel Kanyapur
198,Visnes,NO,54.21,overcast clouds,59.3556,5.2242,Park Inn Haugesund Airport
199,Brenham,US,80.04,clear sky,30.1669,-96.3977,Hampton Inn & Suites Brenham
200,Vao,NC,69.73,clear sky,-22.6667,167.4833,Hotel Kou-Bugny
203,Belmonte,BR,77.5,clear sky,-15.8631,-38.8828,Pousada Monte Carmelo O Pão
205,Vung Tau,VN,79.84,overcast clouds,10.346,107.0843,Green hotel
206,Blama,SL,72.97,light rain,7.8736,-11.3433,Beanageh Small Bo Chiefdom
208,Shingu,JP,79.79,broken clouds,33.7333,135.9833,Shingu UI Hotel
209,Bengkulu,ID,73.85,overcast clouds,-3.8004,102.2655,Grage Hotel Bengkulu
210,Grande-Synthe,FR,53.58,few clouds,51.0154,2.2998,Première Classe
213,Cockburn Town,TC,83.48,clear sky,21.4612,-71.1419,Osprey Beach Hotel
214,Sindgi,IN,75.06,overcast clouds,16.9167,76.2333,Swaranambika nilaya
216,Nairn,GB,50.94,light rain,57.5809,-3.8797,Golf View
217,Airai,TL,77.85,clear sky,-8.9266,125.4092,Juvinal Martin
218,Lipnita,RO,55.15,broken clouds,44.1,27.6,Hotel Dionis
219,Robertsport,LR,78.93,light rain,6.7533,-11.3686,Kwepunha Retreat
220,Lompoc,US,74.01,clear sky,34.6391,-120.4579,"Holiday Inn Express Lompoc, an IHG Hotel"
221,Korla,CN,55.78,overcast clouds,41.7597,86.1469,Gulisitan Hotel
223,Mersing,MY,75.11,scattered clouds,2.4312,103.8405,Timotel Hotel
224,Pontianak,ID,80.58,few clouds,-0.0333,109.3333,Aston Pontianak Hotel & Convention Center
225,Ketchikan,US,52.27,few clouds,55.3422,-131.6461,Snow's Cove Lodge
227,Padrauna,IN,77.43,clear sky,26.9025,83.9819,Hotel Sky Lark
228,Eyl,SO,78.1,overcast clouds,7.9803,49.8164,Amiin Hotel
229,Shache,CN,54.14,clear sky,38.4167,77.2406,Delong Hotel
230,Roebourne,AU,83.25,clear sky,-20.7833,117.1333,Latitude20 Roebourne Village
231,Aberdeen,GB,52.29,light rain,57.1437,-2.0981,Premier Inn Aberdeen City Centre hotel
232,Moroto,UG,71.6,overcast clouds,2.5345,34.6666,"Kara-Tunga, Karamoja Safari Camp"
234,Yamada,JP,62.76,overcast clouds,39.4667,141.95,Iroha-ya Inn
235,Vila Velha,BR,73.35,scattered clouds,-20.3297,-40.2925,Quality Suites Vila Velha
236,Bud,US,70.18,overcast clouds,39.447,-86.1758,Ted McQuinn Trust
237,Avarua,CK,78.85,few clouds,-21.2078,-159.775,Paradise Inn
238,Itarema,BR,79.36,overcast clouds,-2.9248,-39.9167,"Sea Lounge! Bar, Club & Restaurant"
239,Bathsheba,BB,83.01,scattered clouds,13.2167,-59.5167,Atlantis Hotel
240,Flinders,AU,83.05,clear sky,-34.5833,150.8552,Shellharbour Resort & Conference Centre
241,Ponta Delgada,PT,75.51,scattered clouds,37.7333,-25.6667,Vila Nova Hotel
242,Inhambane,MZ,70.97,overcast clouds,-23.865,35.3833,Oceano
243,Virginia Beach,US,73.45,overcast clouds,36.8529,-75.978,Hilton Virginia Beach Oceanfront
247,Bereda,ES,56.41,few clouds,43.2686,-7.5406,Pazo de Verdes
248,Tual,ID,81.81,few clouds,-5.6667,132.75,Grand Vilia Hotel
249,Harper,LR,77.99,broken clouds,4.375,-7.7169,Screensaver
250,Alta Floresta,BR,71.83,broken clouds,-9.8756,-56.0861,Floresta Amazonica Hotel
253,Stephenville,US,78.89,clear sky,32.2207,-98.2023,La Quinta Inn & Suites by Wyndham Stephenville
254,Thompson,CA,50.16,broken clouds,55.7435,-97.8558,Burntwood Hotel
256,Rawson,AR,50.04,clear sky,-43.3002,-65.1023,Hosteria Sampedro
257,Marsh Harbour,BS,83.71,few clouds,26.5412,-77.0636,Abaco Beach Resort
258,San Patricio,US,82.81,clear sky,28.017,-97.5169,"Motel 6 Sinton, TX"
260,Broome,US,64.6,clear sky,42.2506,-75.833,Chenango Valley State Park
261,Wanlaweyn,SO,74.75,broken clouds,2.6185,44.8938,GAASHAAN HOME
263,Torbay,CA,54.37,clear sky,47.6666,-52.7314,Gallows Cove
264,Hambantota,LK,75.54,few clouds,6.1241,81.1185,Bungalow 63
267,Yulara,AU,66.04,clear sky,-25.2406,130.9889,Desert Gardens Hotel - Ayers Rock Resort
268,Constitucion,CL,52.95,clear sky,-35.3333,-72.4167,Hotel Boutique Las Azucenas
269,Acarau,BR,79.47,overcast clouds,-2.8856,-40.12,castelo pizzaria
270,Camopi,GF,74.39,overcast clouds,3.1655,-52.3158,La pousada
271,Georgetown,MY,82.33,scattered clouds,5.4112,100.3354,Cititel Penang
273,Conde,BR,76.46,few clouds,-7.2597,-34.9075,Pousada Beija Flor
274,Marsa Matruh,EG,71.8,scattered clouds,31.3525,27.2453,Beau Site
275,Kaitangata,NZ,65.32,broken clouds,-46.2817,169.8464,Kaitangata Motor Camp
276,Chatrapur,IN,79.38,overcast clouds,19.35,84.9833,Circuit House
277,Bambous Virieux,MU,70.21,scattered clouds,-20.3428,57.7575,Casa Tia Villa
278,Brasileia,BR,79.3,overcast clouds,-11.0161,-68.7481,Pousada Tobias
279,Farmington,US,70.48,few clouds,36.7281,-108.2187,Courtyard by Marriott Farmington
280,Port Hedland,AU,78.85,clear sky,-20.3167,118.5667,The Esplanade Hotel
281,Sawtell,AU,71.92,overcast clouds,-30.3833,153.1,Island Beach House Sawtell
282,Negombo,LK,75.25,few clouds,7.2083,79.8358,Hotel Sunset Beach
283,Ahipara,NZ,60.26,light rain,-35.1667,173.1667,Ahipara Holiday Park
284,Clarksville,US,72.09,few clouds,36.5298,-87.3595,Riverview Inn
285,Kavieng,PG,82.29,overcast clouds,-2.5744,150.7967,Nusa Island Retreat
286,Hami,CN,53.89,overcast clouds,42.8,93.45,Laoyutang Resort
287,Hervey Bay,AU,82.04,overcast clouds,-25.2986,152.8535,Shelly Bay Resort
293,Noshiro,JP,56.34,scattered clouds,40.2039,140.0242,Azuma Ryokan
294,Wexford,IE,59.67,broken clouds,52.3342,-6.4575,Talbot Hotel Wexford
299,Pedernales,DO,82.47,broken clouds,18.0384,-71.744,Hotel Costa Marina
302,Soyo,AO,75.87,overcast clouds,-6.1349,12.3689,Hotel Mpampa
303,Puerto Madryn,AR,50.52,clear sky,-42.7692,-65.0385,Hotel Tolosa
305,Menongue,AO,60.17,overcast clouds,-14.6585,17.691,Ritz Lauca
307,Ialibu,PG,66.83,overcast clouds,-6.2821,143.9935,Eastwood Guesthouse
308,Tyristrand,NO,50.22,overcast clouds,60.0837,10.0966,Hovin Laft AS
309,Los Llanos De Aridane,ES,67.75,overcast clouds,28.6585,-17.9182,Valle Aridane
315,Santa Cruz,BO,81.86,broken clouds,-17.8,-63.1667,Aviador Hotel Boutique
316,Wanning,CN,80.55,light rain,18.8003,110.3967,Paradise Hotel
318,Miles City,US,81.57,few clouds,46.4083,-105.8406,FairBridge Inn & Suites Miles City
319,Miramar,US,84.22,clear sky,25.9873,-80.2323,Miramar
321,Port Blair,IN,80.38,overcast clouds,11.6667,92.75,"Welcomhotel By ITC Hotels, Bay Island, Port Blair"
322,Prince Rupert,CA,50.09,clear sky,54.3161,-130.3201,Crest Hotel
325,Pando,UY,51.98,clear sky,-34.7167,-55.95,viviendas mvotma
326,Gisborne,NZ,63.95,overcast clouds,-38.6533,178.0042,ASURE Alfresco Motor Lodge
327,Sunland Park,US,84.65,clear sky,31.7965,-106.58,SpringHill Suites by Marriott El Paso
328,Saint-Joseph,RE,68.38,scattered clouds,-21.3667,55.6167,"""Plantation Bed and Breakfast"
330,Chapais,CA,55.18,overcast clouds,49.7834,-74.8492,Hôtel Opémiska
331,Salalah,OM,80.69,broken clouds,17.0151,54.0924,HAMDAN PLAZA HOTEL SALALAH
332,Visby,SE,55.85,mist,57.6409,18.296,Best Western Solhem Hotel Visby
333,Ponta Do Sol,PT,72.23,overcast clouds,32.6667,-17.1,Hotel do Campo
334,Novo Aripuana,BR,84.29,overcast clouds,-5.1206,-60.3797,POUSADA Flexy
335,Tocopilla,CL,64.54,overcast clouds,-22.092,-70.1979,Hotel Galvarino
336,Inirida,CO,74.44,overcast clouds,3.8653,-67.9239,Fuente del Guania Hotel de Lujo
337,Warrnambool,AU,54.81,overcast clouds,-38.3833,142.4833,Lady Bay Resort
338,Porto Novo,BJ,76.82,overcast clouds,6.4965,2.6036,Tour Eiffel Hotel Benin
340,Haldibari,IN,77.18,scattered clouds,26.3333,88.7667,Rahul and Debika
342,Kouroussa,GN,74.3,broken clouds,10.65,-9.8833,Hotel Paillote
344,Sawakin,SD,82.74,clear sky,19.1059,37.3321,فندق الدويم
347,Presidente Medici,BR,79.54,few clouds,-11.1753,-61.9014,Oliveira Palace Hotel
348,Bethel,US,64.71,broken clouds,41.3712,-73.414,Courtyard by Marriott Danbury
350,La Joya,MX,74.71,clear sky,18.6667,-99.4667,HOTEL Y RESTAURANTE BUGAMBILIAS
352,Comodoro Rivadavia,AR,58.86,clear sky,-45.8667,-67.5,Austral Hotel
353,Sibu,MY,80.91,few clouds,2.3,111.8167,RH HOTEL (4 Star)
354,Goderich,CA,64.72,overcast clouds,43.7501,-81.7165,Harmony Inn
362,Pacific Grove,US,68.58,clear sky,36.6177,-121.9166,Lovers Point Inn
365,Chauk,MM,82.54,scattered clouds,20.8833,94.8167,Bo Khin Guest House
366,Banda Aceh,ID,80.46,overcast clouds,5.5577,95.3222,Sulthan Hotel International
367,Buin,CL,68.74,clear sky,-33.7333,-70.75,Paihuen
368,Lata,PT,59.07,clear sky,40.1629,-8.3327,Casa Maquia
370,Nemuro,JP,55.83,overcast clouds,43.3236,145.575,Hotel Nemuro Kaiyoutei
371,Morehead,US,73.11,scattered clouds,37.2711,-87.1764,CCI Express Inn
375,Knysna,ZA,55.78,clear sky,-34.0363,23.0471,Protea Hotel by Marriott Knysna Quays
376,Buchanan,LR,76.6,light rain,5.8808,-10.0467,Kamaneahn Hotel Inc
377,Nikki,BJ,73.83,overcast clouds,9.9401,3.2108,Hotel John
379,Lorengau,PG,83.28,few clouds,-2.0226,147.2712,Lorengau Harbourside Hotel
380,Sao Filipe,CV,79.39,few clouds,14.8961,-24.4956,Hotel Xaguate
381,Bambanglipuro,ID,79.02,overcast clouds,-7.95,110.2833,Puri Brata
382,Kavaratti,IN,82.2,overcast clouds,10.5669,72.642,Hotels in Lakshadweep Islands
383,Takoradi,GH,76.26,overcast clouds,4.8845,-1.7554,Raybow International Hotel
384,Ternate,ID,83.75,overcast clouds,0.8,127.4,Grand Dafam Bela Ternate
385,Umuarama,BR,71.04,overcast clouds,-23.7664,-53.325,HOTEL CAIUÁ
388,Kismayo,SO,77.0,overcast clouds,-0.3582,42.5454,Agan-Hotel
389,Kapit,MY,82.67,scattered clouds,2.0167,112.9333,Hotel Meligai Kapit
392,Carmo Do Rio Claro,BR,69.26,overcast clouds,-20.9719,-46.1189,Varandas da Montanha Hotel
393,Suicheng,CN,63.14,light rain,33.8963,117.9331,Junyue Hotel
397,Itajai,BR,70.2,broken clouds,-26.9078,-48.6619,Sandri Palace Hotel - Itajaí
398,Sudak,UA,51.01,overcast clouds,44.85,34.9667,Solari Beach
400,Papara,BR,79.68,overcast clouds,-3.9839,-38.7273,Romin
401,Choma,ZM,67.15,clear sky,-16.8065,26.9531,Kamuboola Lodge
404,Boyolangu,ID,78.19,broken clouds,-8.1181,111.8935,Yos ega cv
406,San Isidro,PE,61.25,overcast clouds,-12.1167,-77.05,Soul Mate-Inn
410,Ornskoldsvik,SE,51.62,overcast clouds,63.2909,18.7153,ファーストホテル スタット
411,Sunbury,AU,58.62,scattered clouds,-37.5833,144.7333,Sunbury Motor Inn
412,Encheng,CN,83.88,few clouds,22.1839,112.3026,Pinghu Hostel
414,Port Augusta,AU,60.71,clear sky,-32.5,137.7667,Majestic Oasis Apartments
415,Tweed,CA,61.14,clear sky,44.4751,-77.3162,Stoco Lake Lodge
416,Mtwara,TZ,71.13,broken clouds,-10.2667,40.1833,TIL Hotels Mtwara
417,Mudon,MM,77.36,overcast clouds,16.2578,97.7164,Motel Mudon
418,Te Anau,NZ,53.19,overcast clouds,-45.4167,167.7167,Kingsgate Hotel Te Anau
421,San Fernando,PH,84.22,overcast clouds,15.0286,120.6898,Maharlika Hostel
424,Dalaba,GN,63.57,overcast clouds,10.7,-12.25,Hôtel Tangama
425,Matara,LK,77.95,broken clouds,5.9485,80.5353,Amaloh Boutique Resort
426,Harindanga,IN,80.58,clear sky,22.0383,88.3214,Hasanur Builders
427,Port-Gentil,GA,77.04,overcast clouds,-0.7193,8.7815,Fengshui Residence
428,Grao Mogol,BR,72.46,broken clouds,-16.5594,-42.8897,Pousada do Eti
430,Omboue,GA,74.89,overcast clouds,-1.5746,9.2618,Hotel Olako
432,Ballina,AU,73.58,scattered clouds,-28.8667,153.5667,Ramada Hotel & Suites by Wyndham Ballina Byron
434,Najran,SA,74.05,clear sky,17.4924,44.1277,محمد هادي ال فطيح
436,Aksu,CN,52.36,scattered clouds,41.1231,80.2644,Pudong Holiday Hotel
438,Meulaboh,ID,78.08,overcast clouds,4.1363,96.1285,Kost Pria
439,Kruisfontein,ZA,54.88,few clouds,-34.0033,24.7314,Oyster Bay House Rental
442,Ode,NG,70.41,overcast clouds,7.7899,5.7117,MORALAB HOTEL
443,Canar,EC,51.84,overcast clouds,-2.55,-78.9333,Hostería La Condesa
444,Rio Grande,BR,54.95,broken clouds,-32.035,-52.0986,Hotel Atlântico Rio Grande
446,San Cristobal,VE,71.78,overcast clouds,7.7669,-72.225,Posada Villaven C.A.
450,Nelson Bay,AU,77.09,overcast clouds,-32.7167,152.15,Mantra Nelson Bay
451,Okitipupa,NG,75.51,overcast clouds,6.5047,4.7839,Coastal Hotel & Suites
452,Ajdabiya,LY,68.52,clear sky,30.7554,20.2263,Almadina Hotel
453,Anju,KP,56.32,overcast clouds,39.6178,125.6647,Super Secret Russian Base
456,Coquimbo,CL,55.13,overcast clouds,-29.9533,-71.3436,Punto de encuentro
458,Huron,US,70.68,broken clouds,41.1501,-82.5499,Meadow Brook Mobile Estates
459,Cam Ranh,VN,76.96,few clouds,11.9214,109.1591,OYO 598 Peony Hotel
460,Save,BJ,73.78,overcast clouds,8.0425,2.486,Restaurant Plazza Hotel
461,Beckley,US,70.29,clear sky,37.7782,-81.1882,"Country Inn & Suites by Radisson, Beckley, WV"
462,Progreso,MX,82.51,overcast clouds,21.2833,-89.6667,Playa Linda Hotel
463,Tuatapere,NZ,67.82,overcast clouds,-46.1333,167.6833,Ron and Tony's Bed & Breakfast
464,Wewak,PG,82.67,overcast clouds,-3.5534,143.6268,In Wewak Boutique Hotel
466,Vanimo,PG,80.2,overcast clouds,-2.6741,141.3028,Vahmoneh Lodge Vanimo
467,Riohacha,CO,84.52,overcast clouds,11.5444,-72.9072,Hotel Taroa
468,Jasper,US,68.05,overcast clouds,37.2001,-94.3502,Guest House Motel
469,San Andres,CO,80.62,broken clouds,12.5847,-81.7006,Hotel Arena Blanca
470,Saint-Felicien,CA,50.68,few clouds,48.6501,-72.4491,Hôtel du Jardin
471,Namuac,PH,82.76,overcast clouds,18.6109,121.1657,Mlin Hotel
473,San Vicente,AR,63.99,overcast clouds,-26.6167,-54.1333,Complejo Turístico Farelluk
474,San Juan,AR,54.63,clear sky,-31.5375,-68.5364,Hotel Provincial
476,Faanui,PF,78.66,few clouds,-16.4833,-151.75,Bora-Bora Pearl Beach Resort & Spa
477,Galesong,ID,78.82,clear sky,-5.3166,119.3661,Sapriadi Appy
479,Nishihara,JP,81.68,overcast clouds,26.1842,127.7558,Minshuku Agaihama
480,Kapuskasing,CA,60.89,few clouds,49.4169,-82.4331,Park Inn Motel
481,Horta,PT,70.93,overcast clouds,38.5333,-28.6333,Hotel do Canal | Horta - Faial
482,Huilong,CN,82.04,few clouds,31.8111,121.655,Hilton Garden Inn Qidong
483,Fiumicino,IT,61.34,clear sky,41.7675,12.2291,Al Porticciolo Hotel
485,Ambam,CM,68.5,moderate rain,2.3833,11.2833,Escapade De La Vallée
487,Cidreira,BR,62.85,overcast clouds,-30.1811,-50.2056,Hotel Castelo
488,Nizwa,OM,78.39,clear sky,22.9333,57.5333,Orient Apartments
489,Karaton,ID,84.96,overcast clouds,-6.3424,106.1045,Parkir Mobil Wisata CAS Water Park
490,San Antonio,US,84.65,clear sky,29.4241,-98.4936,Drury Plaza Hotel San Antonio Riverwalk
491,Acari,PE,67.86,broken clouds,-15.4311,-74.6158,HOSPEDAJE XIMENA
493,Mombetsu,JP,57.85,broken clouds,44.3525,143.3525,Okhotsk Palace Hotel
494,Parry Sound,CA,62.51,clear sky,45.3501,-80.033,Bayside Inn
496,Oussouye,SN,82.58,scattered clouds,12.485,-16.5469,Auberge du Routard
498,Padang,ID,75.25,overcast clouds,-0.9492,100.3543,Mercure Padang
499,Dunedin,NZ,55.8,clear sky,-45.8742,170.5036,Scenic Hotel Southern Cross
500,Sao Joao Batista,BR,71.82,overcast clouds,-27.2761,-48.8494,INNOVARE SLIM SÃO JOÃO BATISTA
502,Katsuura,JP,73.11,overcast clouds,35.1333,140.3,Katsuura Hotel Mikazuki
504,Bandar-E Lengeh,IR,82.51,mist,26.5579,54.8807,کافی نت پارس
507,Ploemeur,FR,60.82,overcast clouds,47.7333,-3.4333,Best Western Plus Hotel Les Rives Du Ter
508,Tabuk,PH,80.38,overcast clouds,17.4189,121.4443,Golden Berries Hotel and Convention
509,El Alto,PE,62.26,few clouds,-4.2714,-81.2147,Black Marlin Restaurant & Hospedaje
511,Xuanhua,CN,52.57,few clouds,40.6103,115.0447,Jinjiang Inn Zhangjiakou Xuanhua People's Park
513,Kerman,IR,60.66,clear sky,30.2832,57.0788,هتل آپارتمان آسام
516,Waipawa,NZ,59.63,overcast clouds,-41.4122,175.5153,Tora Coastal Walk
517,Kilindoni,TZ,77.2,broken clouds,-7.9139,39.6668,Bustani B&B
518,Laguna De Perlas,NI,79.7,light rain,12.3429,-83.6712,Hotel Best View
520,Zhuanghe,CN,56.77,clear sky,39.7008,122.9911,Hanting Express Dalian Zhuanghe Qiansheng
522,Larsnes,NO,52.59,overcast clouds,62.2028,5.5773,Liset Feriesenter AS
523,La Seyne-Sur-Mer,FR,61.88,clear sky,43.0982,5.8847,La Frégate
526,Conceicao Do Araguaia,BR,78.78,few clouds,-8.2578,-49.2647,Tarumã Tropical Hotel
528,Oranjestad,AW,84.15,few clouds,12.524,-70.027,Divi Village Golf & Beach Resort
531,Ovalle,CL,62.73,clear sky,-30.5983,-71.2003,Hotel Altos de Tuqui
532,Burnie,AU,54.95,clear sky,-41.0667,145.9167,Beachfront Voyager Motor Inn
533,Le Port,RE,68.61,few clouds,-20.9373,55.2919,KORBEY D'OR OUEST
534,Canlaon,PH,78.73,overcast clouds,10.3864,123.1964,F & C Guest House
536,Chicama,PE,61.34,broken clouds,-7.8447,-79.1469,Balihai Bungalows
538,Lima,PE,60.13,overcast clouds,-12.0432,-77.0282,Gran Hotel Bolivar Lima
539,Dingle,PH,83.16,overcast clouds,10.9995,122.6711,SEGAYA PROPERTY
541,Svetlyy,RU,50.05,overcast clouds,54.675,20.1347,"Gostinitsa-Kafe, Alena"
543,The Valley,AI,83.1,overcast clouds,18.217,-63.0578,CeBlue Villas & Beach Resort
546,Tucupita,VE,74.5,few clouds,9.0622,-62.051,Hotel Tucupita Su​ite C.A.
547,Burgeo,CA,52.97,overcast clouds,47.6167,-57.6152,Gillett's Motel
548,Mbandaka,CD,71.13,broken clouds,0.0487,18.2603,Guest House Epervier
549,Kingston,JM,83.35,few clouds,17.997,-76.7936,The Jamaica Pegasus Hotel
550,Savannah Bight,HN,80.65,overcast clouds,16.45,-85.85,Villa on Dunbar Rock
551,Keti Bandar,PK,79.47,broken clouds,24.1447,67.4497,Haji laloo memon house
552,La Ronge,CA,55.65,smoke,55.1001,-105.2842,Northland Motor Hotel
553,Tarrafal,CV,79.59,broken clouds,15.2833,-23.7667,Hotel Ixola
557,Sept-Iles,CA,56.05,scattered clouds,50.2001,-66.3821,Comfort Inn
560,Morondava,MG,70.36,clear sky,-20.2833,44.2833,La Case Bambou
561,Shelburne,CA,59.79,overcast clouds,44.0787,-80.2041,The Retreat at the Farm
562,Bogale,MM,79.16,overcast clouds,16.2833,95.4,Aung Pin Lel Guest House
563,North Bend,US,60.85,clear sky,43.4065,-124.2243,Red Lion Hotel Coos Bay
564,Cabedelo,BR,77.67,broken clouds,-6.9811,-34.8339,Hotel Pigalle
565,Bloomfield,US,68.67,overcast clouds,40.8068,-74.1854,La Quinta Inn & Suites by Wyndham Clifton/Rutherford
566,Montepuez,MZ,69.33,overcast clouds,-13.1256,38.9997,PembaAparthotel
567,Mastic Beach,US,67.98,overcast clouds,40.7668,-72.8521,Brushwood House by Smith Point Beach
568,Birin,NP,62.13,scattered clouds,26.8865,88.0718,Sangam hotel and lodge
569,Barillas,GT,70.14,overcast clouds,15.8036,-91.3158,Hotel y Restaurant Bella Estancia
570,Santiago,CL,67.86,clear sky,-33.4569,-70.6483,Che Lagarto Hostel Santiago
573,San Quintin,MX,68.67,overcast clouds,30.4833,-115.95,Don Eddie's Sport Fishing Center
574,Skoczow,PL,56.23,overcast clouds,49.8009,18.7877,DWÓR DĘBOWIEC I
575,Makakilo City,US,82.72,broken clouds,21.3469,-158.0858,Marriott's Ko Olina Beach Club
576,Lannion,FR,59.25,overcast clouds,48.75,-3.4167,Hotel Arcadia
577,Harrisburg,US,69.39,overcast clouds,40.2737,-76.8844,Hilton Harrisburg
578,Jerantut,MY,79.03,broken clouds,3.936,102.3626,Jerantut Hill Resort
581,Cayenne,GF,83.08,broken clouds,4.9333,-52.3333,Hôtel Le Dronmi
582,Kurilsk,RU,50.63,broken clouds,45.2333,147.8833,Hotel Ostrov
583,Ngaoundere,CM,64.62,overcast clouds,7.3167,13.5833,Hotel Mentong Palace
586,Shimoda,JP,70.16,overcast clouds,34.6667,138.95,Shimoda Tokyu Hotel
587,Uige,AO,67.53,overcast clouds,-7.6087,15.0613,Hotel Catraio
589,Sile,TR,61.57,scattered clouds,41.1754,29.6133,Phellos Suites
590,Hereford,GB,58.78,overcast clouds,52.0568,-2.7148,The Green Dragon Hotel
592,Lerwick,GB,50.0,overcast clouds,60.1545,-1.1494,The Lerwick Hotel
594,Rio Negro,BR,62.67,light rain,-26.1058,-49.7975,Hotel Emacite Flex
595,Santo Antonio Do Ica,BR,74.7,overcast clouds,-3.1022,-67.9397,HOTEL AMAZON WAY
596,Conroe,US,81.46,clear sky,30.3119,-95.456,Hampton Inn & Suites Conroe - I-45 North
597,Saint Anthony,US,71.53,overcast clouds,45.0205,-93.218,"Holiday Inn Express Roseville-St. Paul, an IHG Hotel"
599,Lithakia,GR,69.58,overcast clouds,37.7167,20.8333,Zante Plaza Hotel & Apartments
600,Pacifica,US,67.59,broken clouds,37.6138,-122.4869,"Pacifica Lighthouse, Trademark Collection by Wyndham"
601,Sukhumi,GE,54.45,few clouds,43.0033,41.0153,Ritsa Hotel
602,Sabang,ID,81.5,overcast clouds,5.8933,95.3214,Hotel Citra
603,Bonthe,SL,77.47,light rain,7.5264,-12.505,Bonthe Holiday Village
604,Jardim,BR,77.81,broken clouds,-21.4803,-56.1381,Estancia Hotel - Jardim MS
606,Goya,AR,66.65,overcast clouds,-29.14,-59.2626,Apart Costanera Goya
607,Phan Thiet,VN,78.48,overcast clouds,10.9333,108.1,Hotel Saigon-PT
608,Matagami,CA,51.91,clear sky,49.7502,-77.6328,Hôtel Matagami
609,Kamaishi,JP,58.15,overcast clouds,39.2667,141.8833,Hotel Route Inn Kamaishi
610,Kattivakkam,IN,80.69,scattered clouds,13.2167,80.3167,Euronova Freezer
611,Muros,ES,67.84,few clouds,42.7762,-9.0603,Apartment Av. Castelao
612,Bilma,NE,79.5,clear sky,18.6853,12.9164,Expeditions Ténére voyages
617,Helena,US,70.79,overcast clouds,46.5927,-112.0361,"Holiday Inn Express & Suites Helena, an IHG Hotel"
618,Pali,IN,84.34,overcast clouds,25.7667,73.3333,HOTEL THE AMBA VILAS
619,Grand Gaube,MU,70.38,light rain,-20.0064,57.6608,Veranda Paul et Virginie Hotel & Spa
621,Ruteng,ID,73.67,few clouds,-8.6136,120.4721,Hotel FX 72
622,Mumford,GH,77.11,overcast clouds,5.2618,-0.759,Spanish Villa
623,Northam,GB,60.42,overcast clouds,51.0333,-4.2167,Durrant House Hotel
624,Vrangel,RU,50.92,overcast clouds,42.7297,133.0839,"Отель ""БАЛИ"""
625,Zarubino,RU,50.56,overcast clouds,42.63,131.0922,"""Okean"" Baza Otdykha"
627,La Tuque,CA,52.05,clear sky,47.4334,-72.7824,Appart-Hôtel La Tuque
629,Sayyan,YE,59.83,clear sky,15.1718,44.3244,متنزه و بحيرة سيان
630,Kindu,CD,68.67,few clouds,-2.95,25.95,Résidence Okanda
631,Samarai,PG,82.47,broken clouds,-10.6167,150.6667,Nuli Sapi
633,Chimoio,MZ,66.06,broken clouds,-19.1164,33.4833,Predio Livraria Ahmed
634,Liberty,US,75.31,clear sky,31.8335,-81.5004,Sasser’s Mobile Home Park
635,Hasaki,JP,72.28,overcast clouds,35.7333,140.8333,Hotel Sunrise Choshi
636,Medea,DZ,54.05,scattered clouds,36.2642,2.7539,Hôtel M'Sallah
637,Kirando,TZ,76.66,overcast clouds,-7.4167,30.6,Lakeshore Lodge
642,Gat,IL,68.81,clear sky,31.61,34.7642,OlusHome
646,Moose Factory,CA,58.98,clear sky,51.2585,-80.6094,Moosonee Lilypad
647,Bam,IR,75.99,clear sky,29.106,58.357,Bam Tourist Hotel
648,Santa Maria,BR,60.1,clear sky,-29.6842,-53.8069,Hotel Morotin
649,Miyako,JP,62.85,overcast clouds,39.6367,141.9525,Hotel Route Inn Miyako
650,Piacabucu,BR,74.7,few clouds,-10.4056,-36.4344,Piaçabuçu News
651,Port-Cartier,CA,55.74,broken clouds,50.0334,-66.8654,Le Q'Artier
652,Hokitika,NZ,59.16,clear sky,-42.7167,170.9667,Beachfront Hotel Hokitika
653,Qingdao,CN,60.4,scattered clouds,36.0986,120.3719,东晖国际大酒店餐厅
654,Port Shepstone,ZA,65.07,few clouds,-30.7414,30.455,My Den Beachfront Bed and Breakfast | Self-Catering
655,Quatre Cocos,MU,70.09,clear sky,-20.2078,57.7625,Sunrise Attitude Hotel
658,Kosice,SK,54.57,light rain,48.6667,21.3333,Hotel Bonaparte
659,Lovington,US,78.64,clear sky,32.944,-103.3485,Buena vida rv parks
662,Luwuk,ID,84.13,overcast clouds,-0.9516,122.7875,Hotel Santika Luwuk
663,Moerai,PF,75.76,overcast clouds,-22.4333,-151.3333,Le Manotel
665,El Campo,US,80.28,clear sky,29.1966,-96.2697,"Lonestar Inn, El Campo Texas"
666,Nouadhibou,MR,75.18,clear sky,20.931,-17.0347,El Medina
667,Jinchang,CN,51.73,few clouds,38.4953,102.1739,Mingshihui Jinchang International Hotel
670,Sur,OM,80.69,clear sky,22.5667,59.5289,Sur Plaza Hotel
